[
	{
		"Name": "Mons Agnes",
		"H": 0.03,
		"Diam": 0.65,
		"Lat": 18.66,
		"Long": 5.34
	},
	{
		"Name": "Mons Ampère",
		"H": 3.0,
		"Diam": 30,
		"Lat": 19.32,
		"Long": -3.71
	},
	{
		"Name": "Mons André",
		"H": "",
		"Diam": 10,
		"Lat": 5.18,
		"Long": 120.56
	},
	{
		"Name": "Mons Ardeshir",
		"H": "",
		"Diam": 8,
		"Lat": 5.03,
		"Long": 121.04
	},
	{
		"Name": "Mons Argaeus",
		"H": "",
		"Diam": 50,
		"Lat": 19.33,
		"Long": 29.01
	},
	{
		"Name": "Mont Blanc",
		"H": 3.6,
		"Diam": 25,
		"Lat": 45.41,
		"Long": 0.44
	},
	{
		"Name": "Mons Bradley",
		"H": 4.2,
		"Diam": 30,
		"Lat": 21.73,
		"Long": 0.38
	},
	{
		"Name": "Mons Delisle",
		"H": "",
		"Diam": 30,
		"Lat": 29.42,
		"Long": -35.79
	},
	{
		"Name": "Mons Dieter",
		"H": "",
		"Diam": 20,
		"Lat": 5,
		"Long": 120.3
	},
	{
		"Name": "Mons Dilip",
		"H": "",
		"Diam": 2,
		"Lat": 5.58,
		"Long": 120.87
	},
	{
		"Name": "Mons Esam",
		"H": "",
		"Diam": 8,
		"Lat": 14.61,
		"Long": 35.71
	},
	{
		"Name": "Mons Ganau",
		"H": "",
		"Diam": 14,
		"Lat": 4.79,
		"Long": 120.59
	},
	{
		"Name": "Mons Gruithuisen Delta",
		"H": "",
		"Diam": 20,
		"Lat": 36.07,
		"Long": -39.59
	},
	{
		"Name": "Mons Gruithuisen Gamma",
		"H": "",
		"Diam": 20,
		"Lat": 36.56,
		"Long": -40.72
	},
	{
		"Name": "Mons Hadley",
		"H": 4.6,
		"Diam": 25,
		"Lat": 26.69,
		"Long": 4.12
	},
	{
		"Name": "Mons Hadley Delta",
		"H": 3.5,
		"Diam": 15,
		"Lat": 25.72,
		"Long": 3.71
	},
	{
		"Name": "Mons Hansteen",
		"H": "",
		"Diam": 30,
		"Lat": -12.19,
		"Long": -50.21
	},
	{
		"Name": "Mons Herodotus",
		"H": "",
		"Diam": 5,
		"Lat": 27.5,
		"Long": -52.94
	},
	{
		"Name": "Mons Huygens",
		"H": 4.7,
		"Diam": 40,
		"Lat": 19.92,
		"Long": -2.86
	},
	{
		"Name": "Mons La Hire",
		"H": 1.5,
		"Diam": 25,
		"Lat": 27.66,
		"Long": -25.51
	},
	{
		"Name": "Mons Latreille",
		"H": 0.15,
		"Diam": 6.4,
		"Lat": 18.47,
		"Long": 61.92
	},
	{
		"Name": "Mons Maraldi",
		"H": 1.3,
		"Diam": 15,
		"Lat": 20.34,
		"Long": 35.5
	},
	{
		"Name": "Mons Moro",
		"H": "",
		"Diam": 10,
		"Lat": -11.84,
		"Long": -19.84
	},
	{
		"Name": "Mons Penck",
		"H": 4.0,
		"Diam": 30,
		"Lat": -10,
		"Long": 21.74
	},
	{
		"Name": "Mons Piton",
		"H": 2.3,
		"Diam": 25,
		"Lat": 40.72,
		"Long": -0.92
	},
	{
		"Name": "Mons Rümker",
		"H": 0.5,
		"Diam": 70,
		"Lat": 40.76,
		"Long": -58.38
	},
	{
		"Name": "Mons Usov",
		"H": "",
		"Diam": 15,
		"Lat": 11.91,
		"Long": 63.26
	},
	{
		"Name": "Mons Vinogradov",
		"H": 1.4,
		"Diam": 25,
		"Lat": 22.35,
		"Long": -32.52
	},
	{
		"Name": "Mons Vitruvius",
		"H": 2.3,
		"Diam": 15,
		"Lat": 19.33,
		"Long": 30.74
	},
	{
		"Name": "Mons Wolff",
		"H": 3.5,
		"Diam": 35,
		"Lat": 16.88,
		"Long": -6.8
	}
]
