[
	{
		"Name": "Apollo 11",
		"Site": "Mare Tranquillitatis",
		"Dur": "July 16, 1969 - July 24,1969",
		"Commander": "Neil A. Armstrong",
		"CSM": "Columbia",
		"CMP": "Michael Collins",
		"LM": "Eagle",
		"LMP": "Edwin E. Aldrin Jr.",
		"LMLat": "",
		"LMLong": "",
		"SIVBLat": "",
		"SIVBLong": "",
		"Crew": "3",
		"Comments": "No Moonquake"
	},
	{
		"Name": "Apollo 12",
		"Site": "Oceanus Procellarum",
		"Dur": "November 14, 1969 - November 24, 1969",
		"Commander": "Charles Conrad Jr.",
		"CSM": "Yankee Clipper",
		"CMP": "Richard F. Gordon Jr.",
		"LM": "Intrepid",
		"LMP": "Alan L. Bean",
		"LMLat": "-3.94",
		"LMLong": "-21.2",
		"SIVBLat": "",
		"SIVBLong": "",
		"Crew": "3"
	},
	{
		"Name": "Apollo 14",
		"Site": "Fra Mauro",
		"Dur": "January 31, 1971 - February 9, 1971",
		"Commander": "Alan B. Shepard Jr.",
		"CSM": "Kitty Hawk",
		"CMP": "Stuart A. Roosa",
		"LM": "Antares",
		"LMP": "Edgar D. Mitchell",
		"LMLat": "-3.42",
		"LMLong": "-19.67",
		"SIVBLat": "-8.09",
		"SIVBLong": "-26.02",
		"Crew": "3"
	},
	{
		"Name": "Apollo 15",
		"Site": "Hadley-Apennine",
		"Dur": "July 26, 1971 - August 2,1971",
		"Commander": "David R. Scott",
		"CSM": "Endeavour",
		"CMP": "Alfred M. Worden",
		"LM": "Falcon",
		"LMP": "James B. Irwin",
		"LMLat": "26.36",
		"LMLong": "0.25",
		"SIVBLat": "-1.51",
		"SIVBLong": "-11.81",
		"Crew": "3"
	},
	{
		"Name": "Apollo 16",
		"Site": "Descartes Highlands",
		"Dur": "April 16, 1972 - April 27,1972",
		"Commander": "John W. Young",
		"CSM": "Casper",
		"CMP": "Thomas K. Mattingly II",
		"LM": "Orion",
		"LMP": "Charles M. Duke Jr.",
		"LMLat": "",
		"LMLong": "",
		"SIVBLat": "",
		"SIVBLong": "",
		"Crew": "3",
		"Comments": "No Moonquake"
	},
	{
		"Name": "Apollo 17",
		"Site": "Taurus-Littrow",
		"Dur": "December 7, 1972 - December 19,1972",
		"Commander": "Eugene A. Cernan",
		"CSM": "America",
		"CMP": "Ronald E. Evans",
		"LM": "Challenger",
		"LMP": "Harrison H. Schmitt",
		"LMLat": "19.99",
		"LMLong": "30.51",
		"SIVBLat": "-4.21",
		"SIVBLong": "",
		"Crew": "3"
	}
]
